{"type":"FeatureCollection","features":[{"type":"Feature","geometry":{"type":"Point","coordinates":[133.9198,34.6618]},"properties":{"name":"下石井エリア","flow_13":304.3,"flow_20":142.9,"rank_13":1,"rank_20":3,"type":"昼夜両方強い中心核","label":"下石井エリア 13時304.3 / 20時142.9","note":"昼も夜も人流が残る中心核。商業・交通・滞留の重なりを確認。"}},{"type":"Feature","geometry":{"type":"Point","coordinates":[133.9158,34.657]},"properties":{"name":"桑田町エリア","flow_13":284.1,"flow_20":194.4,"rank_13":2,"rank_20":1,"type":"昼夜両方強い中心核","label":"桑田町エリア 13時284.1 / 20時194.4","note":"昼も夜も人流が残る中心核。商業・交通・滞留の重なりを確認。"}},{"type":"Feature","geometry":{"type":"Point","coordinates":[133.9187,34.6663]},"properties":{"name":"岡山駅エリア","flow_13":239.6,"flow_20":130.5,"rank_13":3,"rank_20":4,"type":"昼型","label":"岡山駅エリア 13時239.6 / 20時130.5","note":"13時に強い。買物・業務・観光・駅利用の昼間活動が中心。"}},{"type":"Feature","geometry":{"type":"Point","coordinates":[133.9218,34.665]},"properties":{"name":"中心市街地①（本町）","flow_13":212.0,"flow_20":183.8,"rank_13":4,"rank_20":2,"type":"昼夜両方強い中心核","label":"中心市街地①（本町） 13時212.0 / 20時183.8","note":"昼も夜も人流が残る中心核。商業・交通・滞留の重なりを確認。"}},{"type":"Feature","geometry":{"type":"Point","coordinates":[133.9305,34.661]},"properties":{"name":"中心市街地⑧（表町ほか）","flow_13":190.5,"flow_20":99.7,"rank_13":5,"rank_20":8,"type":"昼型","label":"中心市街地⑧（表町ほか） 13時190.5 / 20時99.7","note":"13時に強い。買物・業務・観光・駅利用の昼間活動が中心。"}},{"type":"Feature","geometry":{"type":"Point","coordinates":[133.9287,34.6633]},"properties":{"name":"中心市街地⑦（中山下ほか）","flow_13":155.9,"flow_20":88.9,"rank_13":6,"rank_20":10,"type":"昼夜バランス型","label":"中心市街地⑦（中山下ほか） 13時155.9 / 20時88.9","note":"昼夜の差は中程度。周辺条件との重なりを確認。"}},{"type":"Feature","geometry":{"type":"Point","coordinates":[133.9215,34.667]},"properties":{"name":"岩田町・駅前町エリア","flow_13":145.5,"flow_20":106.3,"rank_13":7,"rank_20":5,"type":"昼夜バランス型","label":"岩田町・駅前町エリア 13時145.5 / 20時106.3","note":"昼夜の差は中程度。周辺条件との重なりを確認。"}},{"type":"Feature","geometry":{"type":"Point","coordinates":[133.916,34.6668]},"properties":{"name":"駅元町エリア","flow_13":129.9,"flow_20":102.6,"rank_13":8,"rank_20":6,"type":"昼夜バランス型","label":"駅元町エリア 13時129.9 / 20時102.6","note":"昼夜の差は中程度。周辺条件との重なりを確認。"}},{"type":"Feature","geometry":{"type":"Point","coordinates":[133.9214,34.6622]},"properties":{"name":"中心市街地②（幸町ほか）","flow_13":115.7,"flow_20":96.9,"rank_13":9,"rank_20":9,"type":"昼夜バランス型","label":"中心市街地②（幸町ほか） 13時115.7 / 20時96.9","note":"昼夜の差は中程度。周辺条件との重なりを確認。"}},{"type":"Feature","geometry":{"type":"Point","coordinates":[133.9328,34.662]},"properties":{"name":"内山下・京橋町エリア","flow_13":113.0,"flow_20":53.5,"rank_13":10,"rank_20":15,"type":"昼型","label":"内山下・京橋町エリア 13時113.0 / 20時53.5","note":"13時に強い。買物・業務・観光・駅利用の昼間活動が中心。"}},{"type":"Feature","geometry":{"type":"Point","coordinates":[133.9124,34.6687]},"properties":{"name":"奉還町エリア","flow_13":106.2,"flow_20":87.3,"rank_13":11,"rank_20":11,"type":"昼夜バランス型","label":"奉還町エリア 13時106.2 / 20時87.3","note":"昼夜の差は中程度。周辺条件との重なりを確認。"}},{"type":"Feature","geometry":{"type":"Point","coordinates":[133.9248,34.6665]},"properties":{"name":"富田町・野田屋町エリア","flow_13":103.4,"flow_20":81.2,"rank_13":12,"rank_20":12,"type":"昼夜バランス型","label":"富田町・野田屋町エリア 13時103.4 / 20時81.2","note":"昼夜の差は中程度。周辺条件との重なりを確認。"}},{"type":"Feature","geometry":{"type":"Point","coordinates":[133.9258,34.6638]},"properties":{"name":"中心市街地④（磨屋町ほか）","flow_13":81.6,"flow_20":101.1,"rank_13":14,"rank_20":7,"type":"夜に相対的に強い","label":"中心市街地④（磨屋町ほか） 13時81.6 / 20時101.1","note":"20時に相対的に強い。飲食・夜間滞留・帰宅前行動の可能性。"}}]}