[
  {
    "name": "下石井エリア",
    "lat": 34.6618,
    "lon": 133.9198,
    "flow_13": 304.3,
    "flow_20": 142.9,
    "delta_20_minus_13": -161.4,
    "night_day_ratio": 0.47,
    "peak_hour": "13時",
    "peak": 304.3,
    "rank_13": 1,
    "rank_20": 3,
    "rank_change_20_minus_13": 2,
    "day_night_type": "昼夜両方強い中心核",
    "map_note": "昼も夜も人流が残る中心核。商業・交通・滞留の重なりを確認。",
    "map_label": "下石井エリア 13時304.3 / 20時142.9"
  },
  {
    "name": "桑田町エリア",
    "lat": 34.657,
    "lon": 133.9158,
    "flow_13": 284.1,
    "flow_20": 194.4,
    "delta_20_minus_13": -89.6,
    "night_day_ratio": 0.684,
    "peak_hour": "12時",
    "peak": 286.4,
    "rank_13": 2,
    "rank_20": 1,
    "rank_change_20_minus_13": -1,
    "day_night_type": "昼夜両方強い中心核",
    "map_note": "昼も夜も人流が残る中心核。商業・交通・滞留の重なりを確認。",
    "map_label": "桑田町エリア 13時284.1 / 20時194.4"
  },
  {
    "name": "岡山駅エリア",
    "lat": 34.6663,
    "lon": 133.9187,
    "flow_13": 239.6,
    "flow_20": 130.5,
    "delta_20_minus_13": -109.1,
    "night_day_ratio": 0.545,
    "peak_hour": "12時",
    "peak": 244.9,
    "rank_13": 3,
    "rank_20": 4,
    "rank_change_20_minus_13": 1,
    "day_night_type": "昼型",
    "map_note": "13時に強い。買物・業務・観光・駅利用の昼間活動が中心。",
    "map_label": "岡山駅エリア 13時239.6 / 20時130.5"
  },
  {
    "name": "中心市街地①（本町）",
    "lat": 34.665,
    "lon": 133.9218,
    "flow_13": 212.0,
    "flow_20": 183.8,
    "delta_20_minus_13": -28.2,
    "night_day_ratio": 0.867,
    "peak_hour": "18時",
    "peak": 221.7,
    "rank_13": 4,
    "rank_20": 2,
    "rank_change_20_minus_13": -2,
    "day_night_type": "昼夜両方強い中心核",
    "map_note": "昼も夜も人流が残る中心核。商業・交通・滞留の重なりを確認。",
    "map_label": "中心市街地①（本町） 13時212.0 / 20時183.8"
  },
  {
    "name": "中心市街地⑧（表町ほか）",
    "lat": 34.661,
    "lon": 133.9305,
    "flow_13": 190.5,
    "flow_20": 99.7,
    "delta_20_minus_13": -90.8,
    "night_day_ratio": 0.524,
    "peak_hour": "12時",
    "peak": 193.1,
    "rank_13": 5,
    "rank_20": 8,
    "rank_change_20_minus_13": 3,
    "day_night_type": "昼型",
    "map_note": "13時に強い。買物・業務・観光・駅利用の昼間活動が中心。",
    "map_label": "中心市街地⑧（表町ほか） 13時190.5 / 20時99.7"
  },
  {
    "name": "中心市街地⑦（中山下ほか）",
    "lat": 34.6633,
    "lon": 133.9287,
    "flow_13": 155.9,
    "flow_20": 88.9,
    "delta_20_minus_13": -67.0,
    "night_day_ratio": 0.57,
    "peak_hour": "12時",
    "peak": 161.3,
    "rank_13": 6,
    "rank_20": 10,
    "rank_change_20_minus_13": 4,
    "day_night_type": "昼夜バランス型",
    "map_note": "昼夜の差は中程度。周辺条件との重なりを確認。",
    "map_label": "中心市街地⑦（中山下ほか） 13時155.9 / 20時88.9"
  },
  {
    "name": "岩田町・駅前町エリア",
    "lat": 34.667,
    "lon": 133.9215,
    "flow_13": 145.5,
    "flow_20": 106.3,
    "delta_20_minus_13": -39.2,
    "night_day_ratio": 0.731,
    "peak_hour": "15時",
    "peak": 150.1,
    "rank_13": 7,
    "rank_20": 5,
    "rank_change_20_minus_13": -2,
    "day_night_type": "昼夜バランス型",
    "map_note": "昼夜の差は中程度。周辺条件との重なりを確認。",
    "map_label": "岩田町・駅前町エリア 13時145.5 / 20時106.3"
  },
  {
    "name": "駅元町エリア",
    "lat": 34.6668,
    "lon": 133.916,
    "flow_13": 129.9,
    "flow_20": 102.6,
    "delta_20_minus_13": -27.4,
    "night_day_ratio": 0.789,
    "peak_hour": "12時",
    "peak": 134.5,
    "rank_13": 8,
    "rank_20": 6,
    "rank_change_20_minus_13": -2,
    "day_night_type": "昼夜バランス型",
    "map_note": "昼夜の差は中程度。周辺条件との重なりを確認。",
    "map_label": "駅元町エリア 13時129.9 / 20時102.6"
  },
  {
    "name": "中心市街地②（幸町ほか）",
    "lat": 34.6622,
    "lon": 133.9214,
    "flow_13": 115.7,
    "flow_20": 96.9,
    "delta_20_minus_13": -18.8,
    "night_day_ratio": 0.837,
    "peak_hour": "17時",
    "peak": 120.8,
    "rank_13": 9,
    "rank_20": 9,
    "rank_change_20_minus_13": 0,
    "day_night_type": "昼夜バランス型",
    "map_note": "昼夜の差は中程度。周辺条件との重なりを確認。",
    "map_label": "中心市街地②（幸町ほか） 13時115.7 / 20時96.9"
  },
  {
    "name": "内山下・京橋町エリア",
    "lat": 34.662,
    "lon": 133.9328,
    "flow_13": 113.0,
    "flow_20": 53.5,
    "delta_20_minus_13": -59.5,
    "night_day_ratio": 0.473,
    "peak_hour": "13時",
    "peak": 113.0,
    "rank_13": 10,
    "rank_20": 15,
    "rank_change_20_minus_13": 5,
    "day_night_type": "昼型",
    "map_note": "13時に強い。買物・業務・観光・駅利用の昼間活動が中心。",
    "map_label": "内山下・京橋町エリア 13時113.0 / 20時53.5"
  },
  {
    "name": "奉還町エリア",
    "lat": 34.6687,
    "lon": 133.9124,
    "flow_13": 106.2,
    "flow_20": 87.3,
    "delta_20_minus_13": -19.0,
    "night_day_ratio": 0.822,
    "peak_hour": "10時",
    "peak": 113.3,
    "rank_13": 11,
    "rank_20": 11,
    "rank_change_20_minus_13": 0,
    "day_night_type": "昼夜バランス型",
    "map_note": "昼夜の差は中程度。周辺条件との重なりを確認。",
    "map_label": "奉還町エリア 13時106.2 / 20時87.3"
  },
  {
    "name": "富田町・野田屋町エリア",
    "lat": 34.6665,
    "lon": 133.9248,
    "flow_13": 103.4,
    "flow_20": 81.2,
    "delta_20_minus_13": -22.3,
    "night_day_ratio": 0.785,
    "peak_hour": "12時",
    "peak": 106.5,
    "rank_13": 12,
    "rank_20": 12,
    "rank_change_20_minus_13": 0,
    "day_night_type": "昼夜バランス型",
    "map_note": "昼夜の差は中程度。周辺条件との重なりを確認。",
    "map_label": "富田町・野田屋町エリア 13時103.4 / 20時81.2"
  },
  {
    "name": "中心市街地④（磨屋町ほか）",
    "lat": 34.6638,
    "lon": 133.9258,
    "flow_13": 81.6,
    "flow_20": 101.1,
    "delta_20_minus_13": 19.5,
    "night_day_ratio": 1.239,
    "peak_hour": "20時",
    "peak": 101.1,
    "rank_13": 14,
    "rank_20": 7,
    "rank_change_20_minus_13": -7,
    "day_night_type": "夜に相対的に強い",
    "map_note": "20時に相対的に強い。飲食・夜間滞留・帰宅前行動の可能性。",
    "map_label": "中心市街地④（磨屋町ほか） 13時81.6 / 20時101.1"
  },
  {
    "name": "寿町エリア",
    "lat": 34.671,
    "lon": 133.914,
    "flow_13": 93.9,
    "flow_20": 74.1,
    "delta_20_minus_13": -19.8,
    "night_day_ratio": 0.789,
    "peak_hour": "9時",
    "peak": 97.6,
    "rank_13": 13,
    "rank_20": 14,
    "rank_change_20_minus_13": 1,
    "day_night_type": "昼夜バランス型",
    "map_note": "昼夜の差は中程度。周辺条件との重なりを確認。",
    "map_label": "寿町エリア 13時93.9 / 20時74.1"
  },
  {
    "name": "中心市街地⑤（田町ほか）",
    "lat": 34.6608,
    "lon": 133.9264,
    "flow_13": 57.3,
    "flow_20": 78.0,
    "delta_20_minus_13": 20.6,
    "night_day_ratio": 1.36,
    "peak_hour": "20時",
    "peak": 78.0,
    "rank_13": 17,
    "rank_20": 13,
    "rank_change_20_minus_13": -4,
    "day_night_type": "夜に相対的に強い",
    "map_note": "20時に相対的に強い。飲食・夜間滞留・帰宅前行動の可能性。",
    "map_label": "中心市街地⑤（田町ほか） 13時57.3 / 20時78.0"
  },
  {
    "name": "弓之町・天神町・蕃山町エリア",
    "lat": 34.6686,
    "lon": 133.929,
    "flow_13": 73.4,
    "flow_20": 44.8,
    "delta_20_minus_13": -28.6,
    "night_day_ratio": 0.61,
    "peak_hour": "12時",
    "peak": 76.3,
    "rank_13": 15,
    "rank_20": 17,
    "rank_change_20_minus_13": 2,
    "day_night_type": "昼夜バランス型",
    "map_note": "昼夜の差は中程度。周辺条件との重なりを確認。",
    "map_label": "弓之町・天神町・蕃山町エリア 13時73.4 / 20時44.8"
  },
  {
    "name": "岡山城・丸の内エリア",
    "lat": 34.665,
    "lon": 133.9356,
    "flow_13": 69.9,
    "flow_20": 27.8,
    "delta_20_minus_13": -42.1,
    "night_day_ratio": 0.398,
    "peak_hour": "12時",
    "peak": 71.0,
    "rank_13": 16,
    "rank_20": 20,
    "rank_change_20_minus_13": 4,
    "day_night_type": "昼型",
    "map_note": "13時に強い。買物・業務・観光・駅利用の昼間活動が中心。",
    "map_label": "岡山城・丸の内エリア 13時69.9 / 20時27.8"
  },
  {
    "name": "中心市街地③（柳町ほか）",
    "lat": 34.6593,
    "lon": 133.9225,
    "flow_13": 57.1,
    "flow_20": 34.5,
    "delta_20_minus_13": -22.6,
    "night_day_ratio": 0.605,
    "peak_hour": "12時",
    "peak": 59.1,
    "rank_13": 18,
    "rank_20": 19,
    "rank_change_20_minus_13": 1,
    "day_night_type": "昼夜バランス型",
    "map_note": "昼夜の差は中程度。周辺条件との重なりを確認。",
    "map_label": "中心市街地③（柳町ほか） 13時57.1 / 20時34.5"
  },
  {
    "name": "中心市街地⑨（西大寺町ほか）",
    "lat": 34.6589,
    "lon": 133.9331,
    "flow_13": 38.3,
    "flow_20": 45.8,
    "delta_20_minus_13": 7.4,
    "night_day_ratio": 1.194,
    "peak_hour": "22時",
    "peak": 52.4,
    "rank_13": 19,
    "rank_20": 16,
    "rank_change_20_minus_13": -3,
    "day_night_type": "昼夜バランス型",
    "map_note": "昼夜の差は中程度。周辺条件との重なりを確認。",
    "map_label": "中心市街地⑨（西大寺町ほか） 13時38.3 / 20時45.8"
  },
  {
    "name": "中心市街地⑥（中央町ほか）",
    "lat": 34.6592,
    "lon": 133.9258,
    "flow_13": 19.9,
    "flow_20": 40.4,
    "delta_20_minus_13": 20.5,
    "night_day_ratio": 2.031,
    "peak_hour": "22時",
    "peak": 54.5,
    "rank_13": 22,
    "rank_20": 18,
    "rank_change_20_minus_13": -4,
    "day_night_type": "夜型",
    "map_note": "20時に相対的に強い。飲食・夜間滞留・帰宅前行動の可能性。",
    "map_label": "中心市街地⑥（中央町ほか） 13時19.9 / 20時40.4"
  },
  {
    "name": "出石・石関町エリア",
    "lat": 34.6659,
    "lon": 133.9318,
    "flow_13": 33.3,
    "flow_20": 26.1,
    "delta_20_minus_13": -7.1,
    "night_day_ratio": 0.786,
    "peak_hour": "12時",
    "peak": 34.3,
    "rank_13": 20,
    "rank_20": 21,
    "rank_change_20_minus_13": 1,
    "day_night_type": "昼夜バランス型",
    "map_note": "昼夜の差は中程度。周辺条件との重なりを確認。",
    "map_label": "出石・石関町エリア 13時33.3 / 20時26.1"
  },
  {
    "name": "後楽園エリア",
    "lat": 34.6699,
    "lon": 133.935,
    "flow_13": 25.6,
    "flow_20": 9.3,
    "delta_20_minus_13": -16.3,
    "night_day_ratio": 0.364,
    "peak_hour": "13時",
    "peak": 25.6,
    "rank_13": 21,
    "rank_20": 22,
    "rank_change_20_minus_13": 1,
    "day_night_type": "昼型",
    "map_note": "13時に強い。買物・業務・観光・駅利用の昼間活動が中心。",
    "map_label": "後楽園エリア 13時25.6 / 20時9.3"
  }
]